[
    {
        "city": "Auckland", 
        "admin": "", 
        "country": "New Zealand", 
        "population_proper": "395982", 
        "iso2": "NZ", 
        "capital": "", 
        "lat": "-36.866667", 
        "lng": "174.766667", 
        "population": "1377200"
    }, 
    {
        "city": "Wellington", 
        "admin": "", 
        "country": "New Zealand", 
        "population_proper": "393400", 
        "iso2": "NZ", 
        "capital": "primary", 
        "lat": "-41.3", 
        "lng": "174.783333", 
        "population": "393400"
    }, 
    {
        "city": "Christchurch City", 
        "admin": "Canterbury", 
        "country": "New Zealand", 
        "population_proper": "363200", 
        "iso2": "NZ", 
        "capital": "", 
        "lat": "-43.533333", 
        "lng": "172.633333", 
        "population": "363200"
    }, 
    {
        "city": "Waitakere", 
        "admin": "", 
        "country": "New Zealand", 
        "population_proper": "208100", 
        "iso2": "NZ", 
        "capital": "", 
        "lat": "-36.85", 
        "lng": "174.55", 
        "population": "208100"
    }, 
    {
        "city": "Northcote", 
        "admin": "", 
        "country": "New Zealand", 
        "population_proper": "205605", 
        "iso2": "NZ", 
        "capital": "", 
        "lat": "-36.815278", 
        "lng": "174.745833", 
        "population": "205605"
    }, 
    {
        "city": "Hamilton", 
        "admin": "", 
        "country": "New Zealand", 
        "population_proper": "148200", 
        "iso2": "NZ", 
        "capital": "", 
        "lat": "-37.783333", 
        "lng": "175.283333", 
        "population": "148200"
    }, 
    {
        "city": "Tauranga", 
        "admin": "", 
        "country": "New Zealand", 
        "population_proper": "121500", 
        "iso2": "NZ", 
        "capital": "", 
        "lat": "-37.686111", 
        "lng": "176.166667", 
        "population": "121500"
    }, 
    {
        "city": "Dunedin", 
        "admin": "Otago", 
        "country": "New Zealand", 
        "population_proper": "117700", 
        "iso2": "NZ", 
        "capital": "", 
        "lat": "-45.866667", 
        "lng": "170.5", 
        "population": "117700"
    }, 
    {
        "city": "Lower Hutt", 
        "admin": "", 
        "country": "New Zealand", 
        "population_proper": "102400", 
        "iso2": "NZ", 
        "capital": "", 
        "lat": "-41.216667", 
        "lng": "174.916667", 
        "population": "102400"
    }, 
    {
        "city": "Palmerston North", 
        "admin": "", 
        "country": "New Zealand", 
        "population_proper": "82400", 
        "iso2": "NZ", 
        "capital": "", 
        "lat": "-40.35", 
        "lng": "175.616667", 
        "population": "82400"
    }, 
    {
        "city": "Nelson", 
        "admin": "Nelson", 
        "country": "New Zealand", 
        "population_proper": "60800", 
        "iso2": "NZ", 
        "capital": "", 
        "lat": "-41.273459", 
        "lng": "173.282347", 
        "population": "60800"
    }, 
    {
        "city": "Napier", 
        "admin": "", 
        "country": "New Zealand", 
        "population_proper": "57800", 
        "iso2": "NZ", 
        "capital": "", 
        "lat": "-39.483333", 
        "lng": "176.916667", 
        "population": "57800"
    }, 
    {
        "city": "Porirua Pa", 
        "admin": "", 
        "country": "New Zealand", 
        "population_proper": "52500", 
        "iso2": "NZ", 
        "capital": "", 
        "lat": "-41.133333", 
        "lng": "174.833333", 
        "population": "52500"
    }, 
    {
        "city": "New Plymouth", 
        "admin": "", 
        "country": "New Zealand", 
        "population_proper": "52500", 
        "iso2": "NZ", 
        "capital": "", 
        "lat": "-39.066667", 
        "lng": "174.083333", 
        "population": "52500"
    }, 
    {
        "city": "Invercargill", 
        "admin": "Southland", 
        "country": "New Zealand", 
        "population_proper": "49200", 
        "iso2": "NZ", 
        "capital": "", 
        "lat": "-46.428681", 
        "lng": "168.361596", 
        "population": "49200"
    }, 
    {
        "city": "Wanganui", 
        "admin": "", 
        "country": "New Zealand", 
        "population_proper": "43200", 
        "iso2": "NZ", 
        "capital": "", 
        "lat": "-39.933333", 
        "lng": "175.05", 
        "population": "43200"
    }, 
    {
        "city": "Gisborne", 
        "admin": "", 
        "country": "New Zealand", 
        "population_proper": "34300", 
        "iso2": "NZ", 
        "capital": "", 
        "lat": "-38.653333", 
        "lng": "178.004167", 
        "population": "34300"
    }, 
    {
        "city": "Timaru", 
        "admin": "Canterbury", 
        "country": "New Zealand", 
        "population_proper": "27200", 
        "iso2": "NZ", 
        "capital": "", 
        "lat": "-44.398444", 
        "lng": "171.255194", 
        "population": "27200"
    }, 
    {
        "city": "Pukekohe East", 
        "admin": "", 
        "country": "New Zealand", 
        "population_proper": "26300", 
        "iso2": "NZ", 
        "capital": "", 
        "lat": "-37.2", 
        "lng": "174.95", 
        "population": "26300"
    }, 
    {
        "city": "Paraparaumu Beach", 
        "admin": "", 
        "country": "New Zealand", 
        "population_proper": "25263", 
        "iso2": "NZ", 
        "capital": "", 
        "lat": "-40.9", 
        "lng": "174.983333", 
        "population": "25263"
    }, 
    {
        "city": "Taupo", 
        "admin": "", 
        "country": "New Zealand", 
        "population_proper": "22600", 
        "iso2": "NZ", 
        "capital": "", 
        "lat": "-38.683333", 
        "lng": "176.083333", 
        "population": "22600"
    }, 
    {
        "city": "Masterton", 
        "admin": "", 
        "country": "New Zealand", 
        "population_proper": "20200", 
        "iso2": "NZ", 
        "capital": "", 
        "lat": "-40.959722", 
        "lng": "175.6575", 
        "population": "20200"
    }, 
    {
        "city": "Levin", 
        "admin": "", 
        "country": "New Zealand", 
        "population_proper": "19550", 
        "iso2": "NZ", 
        "capital": "", 
        "lat": "-40.633333", 
        "lng": "175.275", 
        "population": "19550"
    }, 
    {
        "city": "Whakatane", 
        "admin": "", 
        "country": "New Zealand", 
        "population_proper": "18700", 
        "iso2": "NZ", 
        "capital": "", 
        "lat": "-37.983333", 
        "lng": "177.0", 
        "population": "18700"
    }, 
    {
        "city": "Tokoroa", 
        "admin": "", 
        "country": "New Zealand", 
        "population_proper": "13350", 
        "iso2": "NZ", 
        "capital": "", 
        "lat": "-38.233333", 
        "lng": "175.866667", 
        "population": "13350"
    }, 
    {
        "city": "Hawera", 
        "admin": "", 
        "country": "New Zealand", 
        "population_proper": "11100", 
        "iso2": "NZ", 
        "capital": "", 
        "lat": "-39.591667", 
        "lng": "174.283333", 
        "population": "11100"
    }, 
    {
        "city": "Greymouth", 
        "admin": "West Coast", 
        "country": "New Zealand", 
        "population_proper": "10100", 
        "iso2": "NZ", 
        "capital": "", 
        "lat": "-42.451111", 
        "lng": "171.206778", 
        "population": "10100"
    }, 
    {
        "city": "Thames", 
        "admin": "", 
        "country": "New Zealand", 
        "population_proper": "6756", 
        "iso2": "NZ", 
        "capital": "", 
        "lat": "-37.133333", 
        "lng": "175.533333", 
        "population": "6756"
    }, 
    {
        "city": "Kerikeri", 
        "admin": "", 
        "country": "New Zealand", 
        "population_proper": "5856", 
        "iso2": "NZ", 
        "capital": "", 
        "lat": "-35.216667", 
        "lng": "173.966667", 
        "population": "5856"
    }, 
    {
        "city": "Wanaka", 
        "admin": "Otago", 
        "country": "New Zealand", 
        "population_proper": "5037", 
        "iso2": "NZ", 
        "capital": "", 
        "lat": "-44.709755", 
        "lng": "169.129417", 
        "population": "5037"
    }, 
    {
        "city": "Westport", 
        "admin": "West Coast", 
        "country": "New Zealand", 
        "population_proper": "3900", 
        "iso2": "NZ", 
        "capital": "", 
        "lat": "-41.752685", 
        "lng": "171.583402", 
        "population": "3900"
    }, 
    {
        "city": "Turangi", 
        "admin": "", 
        "country": "New Zealand", 
        "population_proper": "3240", 
        "iso2": "NZ", 
        "capital": "", 
        "lat": "-39.0", 
        "lng": "175.933333", 
        "population": "3240"
    }, 
    {
        "city": "Hokitika", 
        "admin": "West Coast", 
        "country": "New Zealand", 
        "population_proper": "3078", 
        "iso2": "NZ", 
        "capital": "", 
        "lat": "-42.717214", 
        "lng": "170.963713", 
        "population": "3078"
    }, 
    {
        "city": "Waioruarangi", 
        "admin": "", 
        "country": "New Zealand", 
        "population_proper": "2172", 
        "iso2": "NZ", 
        "capital": "", 
        "lat": "-42.4", 
        "lng": "173.683333", 
        "population": "2172"
    }, 
    {
        "city": "Te Anau", 
        "admin": "Southland", 
        "country": "New Zealand", 
        "population_proper": "1857", 
        "iso2": "NZ", 
        "capital": "", 
        "lat": "-45.414649", 
        "lng": "167.715672", 
        "population": "1857"
    }, 
    {
        "city": "Waitangi", 
        "admin": "", 
        "country": "New Zealand", 
        "population_proper": "300", 
        "iso2": "NZ", 
        "capital": "", 
        "lat": "-43.95", 
        "lng": "-176.533333", 
        "population": "300"
    }
]